{
  "type": "FeatureCollection",
  "features": [
    {
      "type": "Feature",
      "geometry": {
        "type": "Point",
        "coordinates": [
          -75.1800744,
          39.9393312
        ]
      },
      "properties": {
        "name": "Porcos Porchetteria"
      }
    },
    {
      "type": "Feature",
      "geometry": {
        "type": "Point",
        "coordinates": [
          -75.1740758,
          39.9389298
        ]
      },
      "properties": {
        "name": "Chick's"
      }
    },
    {
      "type": "Feature",
      "geometry": {
        "type": "Point",
        "coordinates": [
          -75.179481,
          39.9418386
        ]
      },
      "properties": {
        "name": "The Sidecar Bar & Grille"
      }
    },
    {
      "type": "Feature",
      "geometry": {
        "type": "Point",
        "coordinates": [
          -75.17905139999999,
          39.9452668
        ]
      },
      "properties": {
        "name": "Ants Pants Cafe"
      }
    },
    {
      "type": "Feature",
      "geometry": {
        "type": "Point",
        "coordinates": [
          -75.1771169,
          39.9452196
        ]
      },
      "properties": {
        "name": "Sabrina's Cafe - South Street"
      }
    },
    {
      "type": "Feature",
      "geometry": {
        "type": "Point",
        "coordinates": [
          -75.2226998,
          39.9476862
        ]
      },
      "properties": {
        "name": "Carbon Copy"
      }
    },
    {
      "type": "Feature",
      "geometry": {
        "type": "Point",
        "coordinates": [
          -75.2093732,
          39.9496791
        ]
      },
      "properties": {
        "name": "Clarkville"
      }
    },
    {
      "type": "Feature",
      "geometry": {
        "type": "Point",
        "coordinates": [
          -75.2219444,
          39.9477778
        ]
      },
      "properties": {
        "name": "Cedar Park Cafe"
      }
    },
    {
      "type": "Feature",
      "geometry": {
        "type": "Point",
        "coordinates": [
          -75.2169524,
          39.9481552
        ]
      },
      "properties": {
        "name": "Vietnam Café"
      }
    },
    {
      "type": "Feature",
      "geometry": {
        "type": "Point",
        "coordinates": [
          -75.22264799999999,
          39.94776340000001
        ]
      },
      "properties": {
        "name": "Satellite Cafe"
      }
    },
    {
      "type": "Feature",
      "geometry": {
        "type": "Point",
        "coordinates": [
          -75.2267202,
          39.9499162
        ]
      },
      "properties": {
        "name": "Spinning Chairs Barber Shop"
      }
    },
    {
      "type": "Feature",
      "geometry": {
        "type": "Point",
        "coordinates": [
          -75.1558168,
          39.9586048
        ]
      },
      "properties": {
        "name": "Movement Callowhill"
      }
    },
    {
      "type": "Feature",
      "geometry": {
        "type": "Point",
        "coordinates": [
          -75.2158463,
          39.9486599
        ]
      },
      "properties": {
        "name": "Mood Cafe"
      }
    },
    {
      "type": "Feature",
      "geometry": {
        "type": "Point",
        "coordinates": [
          -75.2242548,
          39.95794069999999
        ]
      },
      "properties": {
        "name": "West Philadelphia YMCA"
      }
    },
    {
      "type": "Feature",
      "geometry": {
        "type": "Point",
        "coordinates": [
          -75.1570804,
          39.9563999
        ]
      },
      "properties": {
        "name": "Drip Vietnamese Cafe"
      }
    },
    {
      "type": "Feature",
      "geometry": {
        "type": "Point",
        "coordinates": [
          -75.2169796,
          39.9483645
        ]
      },
      "properties": {
        "name": "Fu-Wah Mini Market"
      }
    },
    {
      "type": "Feature",
      "geometry": {
        "type": "Point",
        "coordinates": [
          -75.211922,
          39.9546767
        ]
      },
      "properties": {
        "name": "The Second Mile Center"
      }
    },
    {
      "type": "Feature",
      "geometry": {
        "type": "Point",
        "coordinates": [
          -75.2031153,
          39.9536288
        ]
      },
      "properties": {
        "name": "Cinemark University City Penn 6"
      }
    },
    {
      "type": "Feature",
      "geometry": {
        "type": "Point",
        "coordinates": [
          -75.2238814,
          39.9480116
        ]
      },
      "properties": {
        "name": "VIX Emporium"
      }
    },
    {
      "type": "Feature",
      "geometry": {
        "type": "Point",
        "coordinates": [
          -75.2028624,
          39.9534149
        ]
      },
      "properties": {
        "name": "The Last Word Bookshop"
      }
    },
    {
      "type": "Feature",
      "geometry": {
        "type": "Point",
        "coordinates": [
          -75.20187729999999,
          39.9513963
        ]
      },
      "properties": {
        "name": "House of Our Own Books"
      }
    },
    {
      "type": "Feature",
      "geometry": {
        "type": "Point",
        "coordinates": [
          -75.2227004,
          39.94765470000001
        ]
      },
      "properties": {
        "name": "The Fire Works"
      }
    },
    {
      "type": "Feature",
      "geometry": {
        "type": "Point",
        "coordinates": [
          -75.22399949999999,
          39.9481179
        ]
      },
      "properties": {
        "name": "Cleo Bagels"
      }
    },
    {
      "type": "Feature",
      "geometry": {
        "type": "Point",
        "coordinates": [
          -75.2091354,
          39.9488722
        ]
      },
      "properties": {
        "name": "Clark Park Farmers' Market"
      }
    },
    {
      "type": "Feature",
      "geometry": {
        "type": "Point",
        "coordinates": [
          -75.2102762,
          39.95323
        ]
      },
      "properties": {
        "name": "TACOTACOMEXICANO"
      }
    },
    {
      "type": "Feature",
      "geometry": {
        "type": "Point",
        "coordinates": [
          -75.21032389999999,
          39.9527686
        ]
      },
      "properties": {
        "name": "Bottle Shop at Local 44"
      }
    },
    {
      "type": "Feature",
      "geometry": {
        "type": "Point",
        "coordinates": [
          -75.21526949999999,
          39.9474069
        ]
      },
      "properties": {
        "name": "St. Francis De Sales Catholic Church"
      }
    },
    {
      "type": "Feature",
      "geometry": {
        "type": "Point",
        "coordinates": [
          -75.21733100000002,
          40.0562108
        ]
      },
      "properties": {
        "name": "Wissahickon Valley Park"
      }
    },
    {
      "type": "Feature",
      "geometry": {
        "type": "Point",
        "coordinates": [
          -75.19218769999999,
          40.02901689999999
        ]
      },
      "properties": {
        "name": "PAPERtrail Bike Cafe"
      }
    },
    {
      "type": "Feature",
      "geometry": {
        "type": "Point",
        "coordinates": [
          -75.17104450000001,
          39.9595647
        ]
      },
      "properties": {
        "name": "Parkway Central Library"
      }
    },
    {
      "type": "Feature",
      "geometry": {
        "type": "Point",
        "coordinates": [
          -75.1716354,
          39.9600802
        ]
      },
      "properties": {
        "name": "Book Corner"
      }
    },
    {
      "type": "Feature",
      "geometry": {
        "type": "Point",
        "coordinates": [
          -75.2179398,
          39.9483778
        ]
      },
      "properties": {
        "name": "Vientiane Café"
      }
    },
    {
      "type": "Feature",
      "geometry": {
        "type": "Point",
        "coordinates": [
          -75.2138767,
          39.9553831
        ]
      },
      "properties": {
        "name": "Watutsi Pub"
      }
    },
    {
      "type": "Feature",
      "geometry": {
        "type": "Point",
        "coordinates": [
          -75.1617883,
          39.953465
        ]
      },
      "properties": {
        "name": "Juanita Kidd Stout Center for Criminal Justice"
      }
    },
    {
      "type": "Feature",
      "geometry": {
        "type": "Point",
        "coordinates": [
          -75.200266,
          39.9393193
        ]
      },
      "properties": {
        "name": "West Philly Tool Library - WPTL"
      }
    },
    {
      "type": "Feature",
      "geometry": {
        "type": "Point",
        "coordinates": [
          -75.2105174,
          39.94342779999999
        ]
      },
      "properties": {
        "name": "Four Worlds Bakery"
      }
    },
    {
      "type": "Feature",
      "geometry": {
        "type": "Point",
        "coordinates": [
          -75.2182174,
          39.9420463
        ]
      },
      "properties": {
        "name": "Kingsessing Library"
      }
    },
    {
      "type": "Feature",
      "geometry": {
        "type": "Point",
        "coordinates": [
          -75.15909839999999,
          39.9531593
        ]
      },
      "properties": {
        "name": "Reading Terminal Market"
      }
    },
    {
      "type": "Feature",
      "geometry": {
        "type": "Point",
        "coordinates": [
          -75.160542,
          39.9478303
        ]
      },
      "properties": {
        "name": "Knock Restaurant and Bar"
      }
    },
    {
      "type": "Feature",
      "geometry": {
        "type": "Point",
        "coordinates": [
          -75.1615315,
          39.9476667
        ]
      },
      "properties": {
        "name": "U Bar"
      }
    },
    {
      "type": "Feature",
      "geometry": {
        "type": "Point",
        "coordinates": [
          -75.1827641,
          39.9393988
        ]
      },
      "properties": {
        "name": "Habitat for Humanity Philadelphia ReStore"
      }
    },
    {
      "type": "Feature",
      "geometry": {
        "type": "Point",
        "coordinates": [
          -75.20109339999999,
          39.9386143
        ]
      },
      "properties": {
        "name": "Haven Café"
      }
    },
    {
      "type": "Feature",
      "geometry": {
        "type": "Point",
        "coordinates": [
          -75.21696109999999,
          39.9482536
        ]
      },
      "properties": {
        "name": "Hayashi Sushi"
      }
    },
    {
      "type": "Feature",
      "geometry": {
        "type": "Point",
        "coordinates": [
          -75.1818793,
          39.9560314
        ]
      },
      "properties": {
        "name": "30th Street Station"
      }
    },
    {
      "type": "Feature",
      "geometry": {
        "type": "Point",
        "coordinates": [
          -75.137006,
          39.967439
        ]
      },
      "properties": {
        "name": "Love & Honey Fried Chicken"
      }
    },
    {
      "type": "Feature",
      "geometry": {
        "type": "Point",
        "coordinates": [
          -75.2120084,
          39.9529874
        ]
      },
      "properties": {
        "name": "Don Barriga"
      }
    },
    {
      "type": "Feature",
      "geometry": {
        "type": "Point",
        "coordinates": [
          -75.21170029999999,
          39.9541751
        ]
      },
      "properties": {
        "name": "Abyssinia"
      }
    },
    {
      "type": "Feature",
      "geometry": {
        "type": "Point",
        "coordinates": [
          -75.1954195,
          39.9568535
        ]
      },
      "properties": {
        "name": "Two Locals Brewing"
      }
    },
    {
      "type": "Feature",
      "geometry": {
        "type": "Point",
        "coordinates": [
          -75.1772041,
          39.9452837
        ]
      },
      "properties": {
        "name": "Doggie Style Pets South"
      }
    },
    {
      "type": "Feature",
      "geometry": {
        "type": "Point",
        "coordinates": [
          -75.1661665,
          39.9505083
        ]
      },
      "properties": {
        "name": "Moustaki Authentic Gyros (Center City)"
      }
    },
    {
      "type": "Feature",
      "geometry": {
        "type": "Point",
        "coordinates": [
          -75.15595139999999,
          39.9542007
        ]
      },
      "properties": {
        "name": "Heng Feng Hand Drawn Noodles"
      }
    },
    {
      "type": "Feature",
      "geometry": {
        "type": "Point",
        "coordinates": [
          -75.1497116,
          39.95915979999999
        ]
      },
      "properties": {
        "name": "Franklin Music Hall"
      }
    },
    {
      "type": "Feature",
      "geometry": {
        "type": "Point",
        "coordinates": [
          -75.1773951,
          39.9449727
        ]
      },
      "properties": {
        "name": "Chateau Rouge"
      }
    },
    {
      "type": "Feature",
      "geometry": {
        "type": "Point",
        "coordinates": [
          -75.1813447,
          39.9398297
        ]
      },
      "properties": {
        "name": "Breezy's Deli and Market"
      }
    },
    {
      "type": "Feature",
      "geometry": {
        "type": "Point",
        "coordinates": [
          -75.2126933,
          39.9493265
        ]
      },
      "properties": {
        "name": "Milkcrate Cafe"
      }
    },
    {
      "type": "Feature",
      "geometry": {
        "type": "Point",
        "coordinates": [
          -75.18096609999999,
          39.9655697
        ]
      },
      "properties": {
        "name": "Philadelphia Museum of Art"
      }
    },
    {
      "type": "Feature",
      "geometry": {
        "type": "Point",
        "coordinates": [
          -75.165297,
          39.9467935
        ]
      },
      "properties": {
        "name": "Kimmel Center for the Performing Arts"
      }
    },
    {
      "type": "Feature",
      "geometry": {
        "type": "Point",
        "coordinates": [
          -75.1802806,
          39.9392079
        ]
      },
      "properties": {
        "name": "Springfield Beer Distributor"
      }
    },
    {
      "type": "Feature",
      "geometry": {
        "type": "Point",
        "coordinates": [
          -75.1796596,
          39.9392658
        ]
      },
      "properties": {
        "name": "Dock Street Brewery South"
      }
    },
    {
      "type": "Feature",
      "geometry": {
        "type": "Point",
        "coordinates": [
          -75.193248,
          39.94014050000001
        ]
      },
      "properties": {
        "name": "The Fresh Grocer of Grays Ferry"
      }
    },
    {
      "type": "Feature",
      "geometry": {
        "type": "Point",
        "coordinates": [
          -75.1853081,
          39.9425753
        ]
      },
      "properties": {
        "name": "Thai Square Restaurant"
      }
    },
    {
      "type": "Feature",
      "geometry": {
        "type": "Point",
        "coordinates": [
          -75.17947819999999,
          39.9451404
        ]
      },
      "properties": {
        "name": "The Igloo"
      }
    },
    {
      "type": "Feature",
      "geometry": {
        "type": "Point",
        "coordinates": [
          -75.1717939,
          39.94458239999999
        ]
      },
      "properties": {
        "name": "OCF Coffee House"
      }
    },
    {
      "type": "Feature",
      "geometry": {
        "type": "Point",
        "coordinates": [
          -75.1669321,
          39.9473586
        ]
      },
      "properties": {
        "name": "Rita's Italian Ice & Frozen Custard"
      }
    },
    {
      "type": "Feature",
      "geometry": {
        "type": "Point",
        "coordinates": [
          -75.1771444,
          39.9449401
        ]
      },
      "properties": {
        "name": "Social House"
      }
    },
    {
      "type": "Feature",
      "geometry": {
        "type": "Point",
        "coordinates": [
          -75.1806443,
          39.946499
        ]
      },
      "properties": {
        "name": "Rival Bros Coffee Bar"
      }
    },
    {
      "type": "Feature",
      "geometry": {
        "type": "Point",
        "coordinates": [
          -75.1796294,
          39.9465792
        ]
      },
      "properties": {
        "name": "Café Lutécia"
      }
    },
    {
      "type": "Feature",
      "geometry": {
        "type": "Point",
        "coordinates": [
          -75.1790745,
          39.9425213
        ]
      },
      "properties": {
        "name": "Ultimo Coffee"
      }
    },
    {
      "type": "Feature",
      "geometry": {
        "type": "Point",
        "coordinates": [
          -75.1795764,
          39.9451521
        ]
      },
      "properties": {
        "name": "Grace Tavern"
      }
    },
    {
      "type": "Feature",
      "geometry": {
        "type": "Point",
        "coordinates": [
          -75.1621019,
          39.9496356
        ]
      },
      "properties": {
        "name": "Double Knot"
      }
    },
    {
      "type": "Feature",
      "geometry": {
        "type": "Point",
        "coordinates": [
          -75.1826221,
          39.9476503
        ]
      },
      "properties": {
        "name": "Rowhome Coffee - Pine Street"
      }
    },
    {
      "type": "Feature",
      "geometry": {
        "type": "Point",
        "coordinates": [
          -75.17973599999999,
          39.9407959
        ]
      },
      "properties": {
        "name": "Los Camaradas"
      }
    },
    {
      "type": "Feature",
      "geometry": {
        "type": "Point",
        "coordinates": [
          -75.1604412,
          39.9255301
        ]
      },
      "properties": {
        "name": "Bok"
      }
    },
    {
      "type": "Feature",
      "geometry": {
        "type": "Point",
        "coordinates": [
          -75.18038000000001,
          39.939689
        ]
      },
      "properties": {
        "name": "Tuck Barre & Yoga Graduate Hospital"
      }
    },
    {
      "type": "Feature",
      "geometry": {
        "type": "Point",
        "coordinates": [
          -75.1350602,
          39.9655615
        ]
      },
      "properties": {
        "name": "The Fillmore Philadelphia"
      }
    },
    {
      "type": "Feature",
      "geometry": {
        "type": "Point",
        "coordinates": [
          -75.1812812,
          39.9378995
        ]
      },
      "properties": {
        "name": "Queen Memorial Library"
      }
    },
    {
      "type": "Feature",
      "geometry": {
        "type": "Point",
        "coordinates": [
          -75.173743,
          39.9365572
        ]
      },
      "properties": {
        "name": "American Sardine Bar"
      }
    },
    {
      "type": "Feature",
      "geometry": {
        "type": "Point",
        "coordinates": [
          -75.173823,
          39.944507
        ]
      },
      "properties": {
        "name": "Neighborhood Books"
      }
    },
    {
      "type": "Feature",
      "geometry": {
        "type": "Point",
        "coordinates": [
          -75.2037873,
          39.9456674
        ]
      },
      "properties": {
        "name": "The Woodlands"
      }
    }
  ]
}
