{
  "type": "FeatureCollection",
  "features": [
    {
      "type": "Feature",
      "geometry": {
        "type": "Point",
        "coordinates": [
          -75.1800744,
          39.9393312
        ]
      },
      "properties": {
        "name": "Porcos Porchetteria",
        "tags": [
          "food",
          "coffee",
          "bakery"
        ],
        "description": "good pastries; perfect for cancelling out a workout in the Pilates studio across the road.",
        "icon": "bakery"
      }
    },
    {
      "type": "Feature",
      "geometry": {
        "type": "Point",
        "coordinates": [
          -75.1740758,
          39.9389298
        ]
      },
      "properties": {
        "name": "Chick's",
        "tags": [
          "food",
          "drinks",
          "american"
        ],
        "description": "A bar with decent yuppie food. Now that people are moving into the ~yuppie hives~ luxury condos that are sprouting on Washington st, they're liable to be crowded.",
        "icon": "restaurant"
      }
    },
    {
      "type": "Feature",
      "geometry": {
        "type": "Point",
        "coordinates": [
          -75.179481,
          39.9418386
        ]
      },
      "properties": {
        "name": "The Sidecar Bar & Grille",
        "tags": [
          "food",
          "drinks",
          "american"
        ],
        "description": "If you want to ease someone into having a cheesesteak, their cheesesteak pizza is a good start.",
        "icon": "restaurant"
      }
    },
    {
      "type": "Feature",
      "geometry": {
        "type": "Point",
        "coordinates": [
          -75.17905139999999,
          39.9452668
        ]
      },
      "properties": {
        "name": "Ants Pants Cafe",
        "tags": [
          "coffee",
          "breakfast",
          "brunch"
        ],
        "description": "Go for the homefries, stay for the bottomless coffee. Be prepared to pay with cash or venmo. \n\nTHIS IS MY FAVORITE --Emma",
        "icon": "cafe"
      }
    },
    {
      "type": "Feature",
      "geometry": {
        "type": "Point",
        "coordinates": [
          -75.1771169,
          39.9452196
        ]
      },
      "properties": {
        "name": "Sabrina's Cafe - South Street",
        "tags": [
          "breakfast",
          "brunch"
        ],
        "description": "An Experience. It can get pretty crowded.  Pretty good home fries but doesn't match Ants Pants.",
        "icon": "cafe"
      }
    },
    {
      "type": "Feature",
      "geometry": {
        "type": "Point",
        "coordinates": [
          -75.2226998,
          39.9476862
        ]
      },
      "properties": {
        "name": "Carbon Copy",
        "tags": [
          "food",
          "drinks",
          "pizza"
        ],
        "description": "I heard a story about a pizza place that was a money laundering front for the mob that was so successful that the mob abandoned crime to focus on their more lucrative pie business. This place is like that: Carbon Copy is part brewery, part pizza place in an old firehouse; in my opinion, you go for the pizza.  Recommend trying the samosa pizza.",
        "icon": "pizza"
      }
    },
    {
      "type": "Feature",
      "geometry": {
        "type": "Point",
        "coordinates": [
          -75.2093732,
          39.9496791
        ]
      },
      "properties": {
        "name": "Clarkville",
        "tags": [
          "food",
          "drinks",
          "pizza"
        ],
        "description": "Their pizza and beer are good, but the real attraction is the people who brought a kitten on a leash and let them explore. This happened once, but it's still worth mentioning.",
        "icon": "pizza"
      }
    },
    {
      "type": "Feature",
      "geometry": {
        "type": "Point",
        "coordinates": [
          -75.2219444,
          39.9477778
        ]
      },
      "properties": {
        "name": "Cedar Park Cafe",
        "tags": [
          "breakfast",
          "brunch",
          "coffee"
        ],
        "description": "The archetype of a greasy-spoon diner. Solid grits.",
        "icon": "cafe"
      }
    },
    {
      "type": "Feature",
      "geometry": {
        "type": "Point",
        "coordinates": [
          -75.2169524,
          39.9481552
        ]
      },
      "properties": {
        "name": "Vietnam Café",
        "tags": [
          "food",
          "drinks"
        ],
        "description": "Very tasty Asian fusion cuisine specializing in Vietnamese dishes. They have a good space for larger groups. \nNot to be confused with Vientiane Café.",
        "icon": "restaurant"
      }
    },
    {
      "type": "Feature",
      "geometry": {
        "type": "Point",
        "coordinates": [
          -75.22264799999999,
          39.94776340000001
        ]
      },
      "properties": {
        "name": "Satellite Cafe",
        "tags": [
          "coffee"
        ],
        "description": "Crunchy-granola hole-in-the-wall. Their cookies are surprisingly good.  Coffee is just okay though.  BUT only cafe open until 5 PM.",
        "icon": "cafe"
      }
    },
    {
      "type": "Feature",
      "geometry": {
        "type": "Point",
        "coordinates": [
          -75.2267202,
          39.9499162
        ]
      },
      "properties": {
        "name": "Spinning Chairs Barber Shop",
        "tags": [
          "experiences"
        ],
        "description": "I started going here when we moved to West Philly. It's a full-on spa treatment: shampoo, a shave, skincare, and enough steam-aromatherapy to be considered waterboarding. The haircut's good, too.",
        "icon": "hairdresser"
      }
    },
    {
      "type": "Feature",
      "geometry": {
        "type": "Point",
        "coordinates": [
          -75.1558168,
          39.9586048
        ]
      },
      "properties": {
        "name": "Movement Callowhill",
        "tags": [
          "exercise",
          "experiences"
        ],
        "description": "A mid-size climbing gym. I'd put it on par with some of the mid-size Central Rock Gym locations.",
        "icon": "fitness"
      }
    },
    {
      "type": "Feature",
      "geometry": {
        "type": "Point",
        "coordinates": [
          -75.2158463,
          39.9486599
        ]
      },
      "properties": {
        "name": "Mood Cafe",
        "tags": [
          "food"
        ],
        "description": "College-price indian food. The very nice proprietor gave us separate containers of spicy and non-spicy sauce when he heard we always get mild sauce when we share.\nThe mango lassi is 10/10 and extremely large.",
        "icon": "restaurant"
      }
    },
    {
      "type": "Feature",
      "geometry": {
        "type": "Point",
        "coordinates": [
          -75.2242548,
          39.95794069999999
        ]
      },
      "properties": {
        "name": "West Philadelphia YMCA",
        "tags": [
          "exercise"
        ],
        "description": "YOUNG MAN",
        "icon": "fitness"
      }
    },
    {
      "type": "Feature",
      "geometry": {
        "type": "Point",
        "coordinates": [
          -75.1570804,
          39.9563999
        ]
      },
      "properties": {
        "name": "Drip Vietnamese Cafe",
        "tags": [
          "coffee",
          "food"
        ],
        "description": "Good Vietnamese coffee and banh mi",
        "icon": "cafe"
      }
    },
    {
      "type": "Feature",
      "geometry": {
        "type": "Point",
        "coordinates": [
          -75.2169796,
          39.9483645
        ]
      },
      "properties": {
        "name": "Fu-Wah Mini Market",
        "tags": [
          "food"
        ],
        "description": "Killer banh mi. There's usually a line; be prepared to pay cash.  Also strangely the only local shop we can find bulgar wheat.",
        "icon": "restaurant"
      }
    },
    {
      "type": "Feature",
      "geometry": {
        "type": "Point",
        "coordinates": [
          -75.2031153,
          39.9536288
        ]
      },
      "properties": {
        "name": "Cinemark University City Penn 6",
        "tags": [
          "experiences"
        ],
        "description": "In the summer, they have half-price tickets on Tuesdays. Consider smuggling in snacks, because their popcorn isn't quite as good as Costco's off-the-shelf movie popcorn while being 1000x the price.",
        "icon": "cinema"
      }
    },
    {
      "type": "Feature",
      "geometry": {
        "type": "Point",
        "coordinates": [
          -75.2238814,
          39.9480116
        ]
      },
      "properties": {
        "name": "VIX Emporium",
        "tags": [
          "experiences",
          "shopping"
        ],
        "description": "A shop that specializes in local artists' work. They have the best greeting cards!",
        "icon": "shop"
      }
    },
    {
      "type": "Feature",
      "geometry": {
        "type": "Point",
        "coordinates": [
          -75.2028624,
          39.9534149
        ]
      },
      "properties": {
        "name": "The Last Word Bookshop",
        "tags": [
          "used books",
          "cat"
        ],
        "description": "They have a friendly cat (Millie). They also happen to sell used books.",
        "icon": "cat"
      }
    },
    {
      "type": "Feature",
      "geometry": {
        "type": "Point",
        "coordinates": [
          -75.20187729999999,
          39.9513963
        ]
      },
      "properties": {
        "name": "House of Our Own Books",
        "tags": [
          "used books"
        ],
        "description": "A used book store where the books take up every surface of what used to be a house. No cat.",
        "icon": "books"
      }
    },
    {
      "type": "Feature",
      "geometry": {
        "type": "Point",
        "coordinates": [
          -75.22399949999999,
          39.9481179
        ]
      },
      "properties": {
        "name": "Cleo Bagels",
        "tags": [
          "breakfast",
          "coffee"
        ],
        "description": "Fresh bagels made on-site. They have a weekday deal called \"the Trolley Bialy\" on a coffee + bialy combo. It's good (especially the garlic-zataar bialy) but make sure to grab napkins, since they typically add a ton of butter to the bialy. Also solid coffee choice.",
        "icon": "cafe"
      }
    },
    {
      "type": "Feature",
      "geometry": {
        "type": "Point",
        "coordinates": [
          -75.2091354,
          39.9488722
        ]
      },
      "properties": {
        "name": "Clark Park Farmers' Market",
        "tags": [
          "experiences",
          "books",
          "food",
          "art"
        ],
        "description": "The usual farmers' market experience, but still fun!",
        "icon": "books"
      }
    },
    {
      "type": "Feature",
      "geometry": {
        "type": "Point",
        "coordinates": [
          -75.2102762,
          39.95323
        ]
      },
      "properties": {
        "name": "TACOTACOMEXICANO",
        "tags": [
          "food"
        ],
        "description": "Exactly what it sounds like.",
        "icon": "restaurant"
      }
    },
    {
      "type": "Feature",
      "geometry": {
        "type": "Point",
        "coordinates": [
          -75.21032389999999,
          39.9527686
        ]
      },
      "properties": {
        "name": "Bottle Shop at Local 44",
        "tags": [
          "drinks"
        ],
        "description": "Exactly what it sounds like: a place to buy bottles of beer/wine. They've got a good selection.",
        "icon": "bar"
      }
    },
    {
      "type": "Feature",
      "geometry": {
        "type": "Point",
        "coordinates": [
          -75.21526949999999,
          39.9474069
        ]
      },
      "properties": {
        "name": "St. Francis De Sales Catholic Church",
        "tags": [
          "experiences"
        ],
        "description": "It has an attractive dome, but the church's wikipedia page has the inside story:\n\n> The Guastavino dome has leaked for the entire life of the church. All of the tiles on the entire dome were replaced in the 1950s by then-pastor Bishop Joseph McShea in an unsuccessful attempt to stop the leaking. It was suggested that the parish go with copper sheathing, but the bishop was reluctant to make such a drastic change.[5] Partners for Sacred Places, a Philadelphia-area interfaith group that works to support the preservation of churches and other houses of worship, is currently working with the parish to restore the dome, the stained-glass windows, and the doors.\n>\n> --https://en.wikipedia.org/wiki/St._Francis_de_Sales_Roman_Catholic_Church_(Philadelphia)",
        "icon": "cross"
      }
    },
    {
      "type": "Feature",
      "geometry": {
        "type": "Point",
        "coordinates": [
          -75.21733100000002,
          40.0562108
        ]
      },
      "properties": {
        "name": "Wissahickon Valley Park",
        "tags": [
          "experiences",
          "exercise",
          "parks"
        ],
        "description": "A great trail network (in all senses of the word \"great\")",
        "icon": "park"
      }
    },
    {
      "type": "Feature",
      "geometry": {
        "type": "Point",
        "coordinates": [
          -75.19218769999999,
          40.02901689999999
        ]
      },
      "properties": {
        "name": "PAPERtrail Bike Cafe",
        "tags": [
          "coffee"
        ],
        "description": "One of three coffee shops for mountain bikers hidden in the Wissahickon trail network. Good espresso, but no AC.",
        "icon": "cafe"
      }
    },
    {
      "type": "Feature",
      "geometry": {
        "type": "Point",
        "coordinates": [
          -75.17104450000001,
          39.9595647
        ]
      },
      "properties": {
        "name": "Parkway Central Library",
        "tags": [
          "books",
          "art"
        ],
        "description": "They also have cooking classes and an art exhibit.",
        "icon": "books"
      }
    },
    {
      "type": "Feature",
      "geometry": {
        "type": "Point",
        "coordinates": [
          -75.1716354,
          39.9600802
        ]
      },
      "properties": {
        "name": "Book Corner",
        "tags": [
          "used books",
          "cats"
        ],
        "description": "Where the Philadelphia Free Library sells books and DVDs they want to get rid of. They have a very old, very friendly cat (Chaucer).",
        "icon": "cat"
      }
    },
    {
      "type": "Feature",
      "geometry": {
        "type": "Point",
        "coordinates": [
          -75.2179398,
          39.9483778
        ]
      },
      "properties": {
        "name": "Vientiane Café",
        "tags": [
          "food"
        ],
        "description": "Very good Lao-Thai food in an intimate space.\nNot to be confused with Vietnam Café.",
        "icon": "restaurant"
      }
    },
    {
      "type": "Feature",
      "geometry": {
        "type": "Point",
        "coordinates": [
          -75.2138767,
          39.9553831
        ]
      },
      "properties": {
        "name": "Watutsi Pub",
        "tags": [
          "drinks"
        ],
        "description": "A bit of an open-air dive bar. They do serve the Citywide, though: a special consisting of a can of Pabst Blue Ribbon and a shot of something more potent.",
        "icon": "bar"
      }
    },
    {
      "type": "Feature",
      "geometry": {
        "type": "Point",
        "coordinates": [
          -75.1617883,
          39.953465
        ]
      },
      "properties": {
        "name": "Juanita Kidd Stout Center for Criminal Justice",
        "tags": [
          "crime"
        ],
        "description": "I'm giving this place five stars 'cause I got summoned for jury duty, was given a number, missed the selection cutoff by two. A wild ride from start to finish.",
        "icon": "marker"
      }
    },
    {
      "type": "Feature",
      "geometry": {
        "type": "Point",
        "coordinates": [
          -75.200266,
          39.9393193
        ]
      },
      "properties": {
        "name": "West Philly Tool Library - WPTL",
        "tags": [
          "experiences"
        ],
        "description": "We borrowed 90% of the tools needed to get our new house in order from the WPTL! I also took a class there about basic home electrics. It's a community gem.",
        "icon": "marker"
      }
    },
    {
      "type": "Feature",
      "geometry": {
        "type": "Point",
        "coordinates": [
          -75.2105174,
          39.94342779999999
        ]
      },
      "properties": {
        "name": "Four Worlds Bakery",
        "tags": [
          "food",
          "pastries"
        ],
        "description": "The nearest local bakery. They make good bread!",
        "icon": "bakery"
      }
    },
    {
      "type": "Feature",
      "geometry": {
        "type": "Point",
        "coordinates": [
          -75.2182174,
          39.9420463
        ]
      },
      "properties": {
        "name": "Kingsessing Library",
        "tags": [
          "books"
        ],
        "description": "Our local Philadelphia library branch.  Just got a face lift and looks great.  Solid AC in the summer and open on Saturdays!",
        "icon": "books"
      }
    },
    {
      "type": "Feature",
      "geometry": {
        "type": "Point",
        "coordinates": [
          -75.15909839999999,
          39.9531593
        ]
      },
      "properties": {
        "name": "Reading Terminal Market",
        "tags": [
          "food",
          "experiences"
        ],
        "description": "As seen in National Treasure.",
        "icon": "restaurant"
      }
    },
    {
      "type": "Feature",
      "geometry": {
        "type": "Point",
        "coordinates": [
          -75.160542,
          39.9478303
        ]
      },
      "properties": {
        "name": "Knock Restaurant and Bar",
        "tags": [
          "drinks"
        ],
        "description": "They make a mean espresso martini.",
        "icon": "bar"
      }
    },
    {
      "type": "Feature",
      "geometry": {
        "type": "Point",
        "coordinates": [
          -75.1615315,
          39.9476667
        ]
      },
      "properties": {
        "name": "U Bar",
        "tags": [
          "drinks"
        ],
        "description": "???",
        "icon": "bar"
      }
    },
    {
      "type": "Feature",
      "geometry": {
        "type": "Point",
        "coordinates": [
          -75.1827641,
          39.9393988
        ]
      },
      "properties": {
        "name": "Habitat for Humanity Philadelphia ReStore",
        "tags": [
          "thrift stores"
        ],
        "description": "They sell everything **and** the kitchen sink here. When we were painting our new house, we saved at least $100 by using their recycled paint.",
        "icon": "shop"
      }
    },
    {
      "type": "Feature",
      "geometry": {
        "type": "Point",
        "coordinates": [
          -75.20109339999999,
          39.9386143
        ]
      },
      "properties": {
        "name": "Haven Café",
        "tags": [
          "coffee",
          "breakfast",
          "brunch"
        ],
        "description": "If you walk south on to the end of the Schuylkill trail, you can reward yourself with Haven Cafe's waffles.",
        "icon": "cafe"
      }
    },
    {
      "type": "Feature",
      "geometry": {
        "type": "Point",
        "coordinates": [
          -75.21696109999999,
          39.9482536
        ]
      },
      "properties": {
        "name": "Hayashi Sushi",
        "tags": [
          "food"
        ],
        "description": "Pretty good sushi at pretty decent prices. When we last went, someone was giving a tarot reading at the next table over.",
        "icon": "restaurant"
      }
    },
    {
      "type": "Feature",
      "geometry": {
        "type": "Point",
        "coordinates": [
          -75.1818793,
          39.9560314
        ]
      },
      "properties": {
        "name": "30th Street Station",
        "tags": [
          "transit"
        ],
        "description": "One of the rare Amtrak stations that _isn't_ named Penn Station or Union Station.",
        "icon": "rail"
      }
    },
    {
      "type": "Feature",
      "geometry": {
        "type": "Point",
        "coordinates": [
          -75.137006,
          39.967439
        ]
      },
      "properties": {
        "name": "Love & Honey Fried Chicken",
        "tags": [
          "food"
        ],
        "description": "",
        "icon": "restaurant"
      }
    },
    {
      "type": "Feature",
      "geometry": {
        "type": "Point",
        "coordinates": [
          -75.21170029999999,
          39.9541751
        ]
      },
      "properties": {
        "name": "Abyssinia",
        "tags": [
          "food",
          "experiences"
        ],
        "description": "",
        "icon": "restaurant"
      }
    },
    {
      "type": "Feature",
      "geometry": {
        "type": "Point",
        "coordinates": [
          -75.1954195,
          39.9568535
        ]
      },
      "properties": {
        "name": "Two Locals Brewing",
        "tags": [
          "drinks"
        ],
        "icon": "bar"
      }
    },
    {
      "type": "Feature",
      "geometry": {
        "type": "Point",
        "coordinates": [
          -75.1772041,
          39.9452837
        ]
      },
      "properties": {
        "name": "Doggie Style Pets South",
        "tags": [
          "cats",
          "dogs"
        ],
        "description": "A local chain of pet-supply stores. This one usually has dogs for adoption up in the window. I'm not sure if the name is great or terrible marketing.",
        "icon": "cat"
      }
    },
    {
      "type": "Feature",
      "geometry": {
        "type": "Point",
        "coordinates": [
          -75.15595139999999,
          39.9542007
        ]
      },
      "properties": {
        "name": "Heng Feng Hand Drawn Noodles",
        "tags": [
          "food"
        ],
        "description": "One of MANY awesome spots in Chinatown.",
        "icon": "restaurant"
      }
    },
    {
      "type": "Feature",
      "geometry": {
        "type": "Point",
        "coordinates": [
          -75.1497116,
          39.95915979999999
        ]
      },
      "properties": {
        "name": "Franklin Music Hall",
        "tags": [
          "experiences",
          "music"
        ],
        "description": "There's usually a way to see the stage and lean on something on the balcony near the bar, but the acoustics aren't great.",
        "icon": "music"
      }
    },
    {
      "type": "Feature",
      "geometry": {
        "type": "Point",
        "coordinates": [
          -75.1773951,
          39.9449727
        ]
      },
      "properties": {
        "name": "Chateau Rouge",
        "tags": [
          "food"
        ],
        "description": "Unlike its better-known cousin, White Castle, Chateau Rouge serves extremely good Afro-French cuisine. Excellent for special occasions.",
        "icon": "restaurant"
      }
    },
    {
      "type": "Feature",
      "geometry": {
        "type": "Point",
        "coordinates": [
          -75.1813447,
          39.9398297
        ]
      },
      "properties": {
        "name": "Breezy's Deli and Market",
        "tags": [
          "food"
        ],
        "description": "Very good elongated sandwiches, or  as we call them in Philadelphia, \"hoagies\". This place notably adds \"hoagie juice\" to their \"hoagies\" for an extra boost.",
        "icon": "restaurant"
      }
    },
    {
      "type": "Feature",
      "geometry": {
        "type": "Point",
        "coordinates": [
          -75.2126933,
          39.9493265
        ]
      },
      "properties": {
        "name": "Milkcrate Cafe",
        "tags": [
          "coffee"
        ],
        "description": "They also sell records.",
        "icon": "cafe"
      }
    },
    {
      "type": "Feature",
      "geometry": {
        "type": "Point",
        "coordinates": [
          -75.18096609999999,
          39.9655697
        ]
      },
      "properties": {
        "name": "Philadelphia Museum of Art",
        "tags": [
          "experiences",
          "art"
        ],
        "description": "the PhArt has a collection worth visiting. It also is embroiled in a scandal where the current director kicked off a rebranding effort that the board opposed/opposes, wasting at least a million dollars. It's great entertainment!",
        "icon": "museum"
      }
    },
    {
      "type": "Feature",
      "geometry": {
        "type": "Point",
        "coordinates": [
          -75.165297,
          39.9467935
        ]
      },
      "properties": {
        "name": "Kimmel Center for the Performing Arts",
        "tags": [
          "music",
          "experiences"
        ],
        "description": "Beautiful auditorium.  Philadelphia Orchestra plays here.  We heard Yuja Wang play this past year and she was phenomenal.",
        "icon": "music"
      }
    },
    {
      "type": "Feature",
      "geometry": {
        "type": "Point",
        "coordinates": [
          -75.1802806,
          39.9392079
        ]
      },
      "properties": {
        "name": "Springfield Beer Distributor",
        "tags": [
          "drinks"
        ],
        "description": "Pretty much what it sounds like: a giant warehouse full of beer that you can walk around, if you're so inclined. The prices are ok, but not amazing.",
        "icon": "bar"
      }
    },
    {
      "type": "Feature",
      "geometry": {
        "type": "Point",
        "coordinates": [
          -75.1796596,
          39.9392658
        ]
      },
      "properties": {
        "name": "Dock Street Brewery South",
        "tags": [
          "food",
          "drinks"
        ],
        "description": "Large seating area.  Casual dining.  Good mocktails.",
        "icon": "restaurant"
      }
    },
    {
      "type": "Feature",
      "geometry": {
        "type": "Point",
        "coordinates": [
          -75.193248,
          39.94014050000001
        ]
      },
      "properties": {
        "name": "The Fresh Grocer of Grays Ferry",
        "tags": [
          "food"
        ],
        "description": "Our old grocery store when we lived in Gray's Ferry.  It's a grocery store, so technically nothing special, but we just liked it.",
        "icon": "restaurant"
      }
    },
    {
      "type": "Feature",
      "geometry": {
        "type": "Point",
        "coordinates": [
          -75.1853081,
          39.9425753
        ]
      },
      "properties": {
        "name": "Thai Square Restaurant",
        "tags": [
          "food"
        ],
        "description": "Great curry and outdoor seating! BYOB.",
        "icon": "restaurant"
      }
    },
    {
      "type": "Feature",
      "geometry": {
        "type": "Point",
        "coordinates": [
          -75.1717939,
          39.94458239999999
        ]
      },
      "properties": {
        "name": "OCF Coffee House",
        "tags": [
          "coffee"
        ],
        "icon": "cafe"
      }
    },
    {
      "type": "Feature",
      "geometry": {
        "type": "Point",
        "coordinates": [
          -75.1771444,
          39.9449401
        ]
      },
      "properties": {
        "name": "Social House",
        "tags": [
          "coffee"
        ],
        "description": "nice seating area.  Good Chai latte.",
        "icon": "cafe"
      }
    },
    {
      "type": "Feature",
      "geometry": {
        "type": "Point",
        "coordinates": [
          -75.1796294,
          39.9465792
        ]
      },
      "properties": {
        "name": "Café Lutécia",
        "tags": [
          "coffee",
          "breakfast",
          "brunch"
        ],
        "icon": "cafe"
      }
    },
    {
      "type": "Feature",
      "geometry": {
        "type": "Point",
        "coordinates": [
          -75.1790745,
          39.9425213
        ]
      },
      "properties": {
        "name": "Ultimo Coffee",
        "tags": [
          "coffee"
        ],
        "icon": "cafe"
      }
    },
    {
      "type": "Feature",
      "geometry": {
        "type": "Point",
        "coordinates": [
          -75.1795764,
          39.9451521
        ]
      },
      "properties": {
        "name": "Grace Tavern",
        "tags": [
          "food",
          "drinks"
        ],
        "description": "An ok beer-and-burger joint with great outdoor seating.",
        "icon": "restaurant"
      }
    },
    {
      "type": "Feature",
      "geometry": {
        "type": "Point",
        "coordinates": [
          -75.1621019,
          39.9496356
        ]
      },
      "properties": {
        "name": "Double Knot",
        "tags": [
          "food",
          "drinks"
        ],
        "description": "Good sake deal during happy hour! Also great buns. Shares a kitchen with Graffiti Bar.",
        "icon": "restaurant"
      }
    },
    {
      "type": "Feature",
      "geometry": {
        "type": "Point",
        "coordinates": [
          -75.1826221,
          39.9476503
        ]
      },
      "properties": {
        "name": "Rowhome Coffee - Pine Street",
        "tags": [
          "coffee",
          "breakfast"
        ],
        "description": "Get the egg sandwich on a pretzel bun, it's worth it.  It's popular and a small space, so it can get crowded. You can order ahead online.",
        "icon": "cafe"
      }
    },
    {
      "type": "Feature",
      "geometry": {
        "type": "Point",
        "coordinates": [
          -75.17973599999999,
          39.9407959
        ]
      },
      "properties": {
        "name": "Los Camaradas",
        "tags": [
          "food",
          "drinks"
        ],
        "description": "Great nachos.",
        "icon": "restaurant"
      }
    },
    {
      "type": "Feature",
      "geometry": {
        "type": "Point",
        "coordinates": [
          -75.1604412,
          39.9255301
        ]
      },
      "properties": {
        "name": "Bok",
        "tags": [
          "art",
          "experiences",
          "food",
          "drinks"
        ],
        "description": "Bok used to be a high school until it was bought by a public-minded millionaire who turned it into art studios and offices for small businesses. It's well worth visiting for the view from the rooftop bar, but also for its biannual open houses.",
        "icon": "art"
      }
    },
    {
      "type": "Feature",
      "geometry": {
        "type": "Point",
        "coordinates": [
          -75.18038000000001,
          39.939689
        ]
      },
      "properties": {
        "name": "Tuck Barre & Yoga Graduate Hospital",
        "tags": [
          "experiences",
          "exercise"
        ],
        "description": "If you need a good kick in the pants, take a 45 minute class holding the 4 lb weights.",
        "icon": "fitness"
      }
    },
    {
      "type": "Feature",
      "geometry": {
        "type": "Point",
        "coordinates": [
          -75.1350602,
          39.9655615
        ]
      },
      "properties": {
        "name": "The Fillmore Philadelphia",
        "tags": [
          "experiences",
          "music"
        ],
        "description": "We went to see Josh Johnson here!",
        "icon": "music"
      }
    },
    {
      "type": "Feature",
      "geometry": {
        "type": "Point",
        "coordinates": [
          -75.1812812,
          39.9378995
        ]
      },
      "properties": {
        "name": "Queen Memorial Library",
        "tags": [
          "books"
        ],
        "description": "Not sure which queen. Nice books, though!",
        "icon": "books"
      }
    },
    {
      "type": "Feature",
      "geometry": {
        "type": "Point",
        "coordinates": [
          -75.173743,
          39.9365572
        ]
      },
      "properties": {
        "name": "American Sardine Bar",
        "tags": [
          "food",
          "drinks"
        ],
        "description": "Sardines are a Philly thing. This place has whole charcuterie boards of sardines and pickles, which is an experience.",
        "icon": "restaurant"
      }
    },
    {
      "type": "Feature",
      "geometry": {
        "type": "Point",
        "coordinates": [
          -75.173823,
          39.944507
        ]
      },
      "properties": {
        "name": "Neighborhood Books",
        "tags": [
          "used books"
        ],
        "description": "They have a great selection, and they're almost always running a buy-three-get-one-free special. No cat, though.",
        "icon": "books"
      }
    },
    {
      "type": "Feature",
      "geometry": {
        "type": "Point",
        "coordinates": [
          -75.2037873,
          39.9456674
        ]
      },
      "properties": {
        "name": "The Woodlands",
        "tags": [
          "experiences",
          "parks"
        ],
        "description": "While the woodlands is a graveyard, it also serves as a mile-long nature trail. I ran a 26.2x1-mile relay here with the West Philly Runners. _Technically_ I ran a marathon in 2:51:38.",
        "icon": "park"
      }
    },
    {
      "type": "Feature",
      "geometry": {
        "type": "Point",
        "coordinates": [
          -75.15116669999999,
          39.9406653
        ]
      },
      "properties": {
        "name": "Philly AIDS Thrift",
        "tags": [
          "thrift stores",
          "used books"
        ],
        "description": "",
        "icon": "books"
      }
    },
    {
      "type": "Feature",
      "geometry": {
        "type": "Point",
        "coordinates": [
          -75.1611946,
          39.9451733
        ]
      },
      "properties": {
        "name": "Philly AIDS Thrift @ Giovanni's Room",
        "tags": [
          "thrift stores",
          "used books"
        ],
        "icon": "books"
      }
    },
    {
      "type": "Feature",
      "geometry": {
        "type": "Point",
        "coordinates": [
          -75.159357,
          39.9426127
        ]
      },
      "properties": {
        "name": "Philadelphia's Magic Gardens",
        "tags": [
          "experiences",
          "art"
        ],
        "description": "A local artist spent decades making mosaics out of found materials. You can find many of their installations around Philly, but this is the largest of their works by far.",
        "icon": "art"
      }
    },
    {
      "type": "Feature",
      "geometry": {
        "type": "Point",
        "coordinates": [
          -75.1706311,
          39.95099889999999
        ]
      },
      "properties": {
        "name": "The Dandelion",
        "tags": [
          "food",
          "drinks"
        ],
        "description": "A dark-wood British pub.",
        "icon": "restaurant"
      }
    },
    {
      "type": "Feature",
      "geometry": {
        "type": "Point",
        "coordinates": [
          -75.1927481,
          39.9388297
        ]
      },
      "properties": {
        "name": "PAWS Spay/Neuter and Wellness Clinic",
        "tags": [
          "cats",
          "dogs"
        ],
        "description": "Emma volunteers here.  She sends pictures of at least 1 cat every time asking Steven if we can be their new parents.",
        "icon": "cat"
      }
    },
    {
      "type": "Feature",
      "geometry": {
        "type": "Point",
        "coordinates": [
          -75.1434542,
          39.95023
        ]
      },
      "properties": {
        "name": "The Book Trader",
        "tags": [
          "used books",
          "cats"
        ],
        "description": "Dr Pickle (the orange, round cat) is very friendly.",
        "icon": "cat"
      }
    },
    {
      "type": "Feature",
      "geometry": {
        "type": "Point",
        "coordinates": [
          -75.17400940000002,
          39.967136
        ]
      },
      "properties": {
        "name": "Bookhaven",
        "tags": [
          "used books",
          "cats"
        ],
        "description": "Bookhaven has a great selection and even better cats (Emma and Jane)",
        "icon": "cat"
      }
    },
    {
      "type": "Feature",
      "geometry": {
        "type": "Point",
        "coordinates": [
          -75.1518859,
          39.9411427
        ]
      },
      "properties": {
        "name": "Mostly Books",
        "tags": [
          "cats",
          "used books"
        ],
        "description": "Unfortunately, we don't know the cats' names, but they are friendly.  This place has an interesting book balcony that I question the structural integrity of, but there are a lot of books.",
        "icon": "cat"
      }
    },
    {
      "type": "Feature",
      "geometry": {
        "type": "Point",
        "coordinates": [
          -75.2138494,
          39.948783
        ]
      },
      "properties": {
        "name": "Bindlestiff Books",
        "tags": [
          "used books"
        ],
        "description": "A mix of new and used books, which helps it have an amazing selection of books. No cat.",
        "icon": "books"
      }
    },
    {
      "type": "Feature",
      "geometry": {
        "type": "Point",
        "coordinates": [
          -75.22675370000002,
          39.9519749
        ]
      },
      "properties": {
        "name": "Toast Cafe",
        "tags": [
          "brunch"
        ],
        "description": "FREE mimosas on Sundays. Food is pretty good too.",
        "icon": "cafe"
      }
    },
    {
      "type": "Feature",
      "geometry": {
        "type": "Point",
        "coordinates": [
          -75.2184288,
          39.9482341
        ]
      },
      "properties": {
        "name": "Calvary Community Center",
        "tags": [
          "art",
          "experiences"
        ],
        "description": "Home to the community theater (Curio Theater Company) and with a revolving free-to-walk-in art gallery, among others.  We saw Dracula A Comedy of Terrors this Halloween.  There were 4 actors playing 8 characters; it was awesome.",
        "icon": "art"
      }
    },
    {
      "type": "Feature",
      "geometry": {
        "type": "Point",
        "coordinates": [
          -75.2133764,
          39.9452034
        ]
      },
      "properties": {
        "name": "Kingsessing Ice Cream Shop",
        "tags": [
          "ice cream"
        ],
        "description": "They have affogato and a basket of lactaid pills.",
        "icon": "ice-cream"
      }
    },
    {
      "type": "Feature",
      "geometry": {
        "type": "Point",
        "coordinates": [
          -75.1502821,
          39.9496103
        ]
      },
      "properties": {
        "name": "Liberty Bell",
        "tags": [
          "experiences",
          "historic"
        ],
        "description": "My brother, David, and I are obsessed with the movie National Treasure, in which the Liberty Bell has a guest appearance.",
        "icon": "historic"
      }
    },
    {
      "type": "Feature",
      "geometry": {
        "type": "Point",
        "coordinates": [
          -75.1553236,
          39.96138759999999
        ]
      },
      "properties": {
        "name": "Union Transfer",
        "tags": [
          "music",
          "experiences"
        ],
        "description": "According to one of my acquaintances from West Philly Runners, this has the best acoustics of all the music venues in town.",
        "icon": "music"
      }
    },
    {
      "type": "Feature",
      "geometry": {
        "type": "Point",
        "coordinates": [
          -75.15833020000001,
          39.937282
        ]
      },
      "properties": {
        "name": "Molly's Books & Records",
        "tags": [
          "used books",
          "cats"
        ],
        "description": "They adopted two shop-kittens, Junior and Ace since we last visited. I guess we know what we're doing in 2026!",
        "icon": "cat"
      }
    },
    {
      "type": "Feature",
      "geometry": {
        "type": "Point",
        "coordinates": [
          -75.1960476,
          39.9341965
        ]
      },
      "properties": {
        "name": "Korea Taqueria - South Philly",
        "tags": [
          "food"
        ],
        "description": "Contender for the best fries in Philly, IMO. Fantastic mexican-korean fusion, as well.",
        "icon": "restaurant"
      }
    },
    {
      "type": "Feature",
      "geometry": {
        "type": "Point",
        "coordinates": [
          -75.18232429999999,
          39.949054
        ]
      },
      "properties": {
        "name": "Big Dog Run",
        "tags": [
          "dogs"
        ],
        "description": "Where Philadelphia's dog high society gathers. It's a common sightseeing destination for Schuylkill trail-goers.",
        "icon": "dog"
      }
    },
    {
      "type": "Feature",
      "geometry": {
        "type": "Point",
        "coordinates": [
          -75.193924,
          39.9487346
        ]
      },
      "properties": {
        "name": "Children's Hospital of Philadelphia - Main Building",
        "tags": [
          "hospital"
        ],
        "description": "Emma works here.  Would recommend.",
        "icon": "hospital"
      }
    },
    {
      "type": "Feature",
      "geometry": {
        "type": "Point",
        "coordinates": [
          -75.2224839,
          39.9475382
        ]
      },
      "properties": {
        "name": "Third Wheel Cheese Co.",
        "tags": [
          "food"
        ],
        "description": "We didn't know this shop was in our neighborhood until after we bought our new home.  It is ESSENTIAL.",
        "icon": "restaurant"
      }
    },
    {
      "type": "Feature",
      "geometry": {
        "type": "Point",
        "coordinates": [
          -75.2206807,
          39.9479731
        ]
      },
      "properties": {
        "name": "Mariposa Food Co-op",
        "tags": [
          "food"
        ],
        "description": "Our new local grocery shop.  Decent selection.",
        "icon": "restaurant"
      }
    },
    {
      "type": "Feature",
      "geometry": {
        "type": "Point",
        "coordinates": [
          -75.2030875,
          39.9497224
        ]
      },
      "properties": {
        "name": "Renata's Kitchen",
        "tags": [
          "food"
        ],
        "description": "Great Mediterranean food.  Nice outdoor seating as well.  Recommend sharing some lebnah.",
        "icon": "restaurant"
      }
    },
    {
      "type": "Feature",
      "geometry": {
        "type": "Point",
        "coordinates": [
          -75.1232169,
          39.9811979
        ]
      },
      "properties": {
        "name": "Circles and Squares",
        "tags": [
          "pizza"
        ],
        "description": "Nothing crazy special, but they make a solid pizza.",
        "icon": "pizza"
      }
    },
    {
      "type": "Feature",
      "geometry": {
        "type": "Point",
        "coordinates": [
          -75.144893,
          39.948655
        ]
      },
      "properties": {
        "name": "Amada Philadelphia",
        "tags": [
          "food"
        ],
        "description": "GREAT tapas.  Very affordable for a small plates place.  Best to go with a group so you can order everything.",
        "icon": "restaurant"
      }
    },
    {
      "type": "Feature",
      "geometry": {
        "type": "Point",
        "coordinates": [
          -75.1817665,
          39.9488177
        ]
      },
      "properties": {
        "name": "Schuylkill River Park",
        "tags": [
          "parks"
        ],
        "description": "Nice park.  Great dog watching.  Grab a pretzel sandwich at Rowhome Coffee and enjoy!",
        "icon": "park"
      }
    },
    {
      "type": "Feature",
      "geometry": {
        "type": "Point",
        "coordinates": [
          -75.1571349,
          39.9615649
        ]
      },
      "properties": {
        "name": "Cafe Lift",
        "tags": [
          "coffee",
          "brunch"
        ],
        "description": "Bottomless coffee, chic atmosphere, and good home fries.",
        "icon": "cafe"
      }
    }
  ]
}
